[{"id":1001,"name":"Ermou","long":38.246756,"lat":21.736025},{"id":1002,"name":"Ag. Nikolaou","long":38.247628,"lat":21.737502},{"id":1003,"name":"Zaimi","long":38.248998,"lat":21.739233},{"id":1004,"name":"Arsakeio","long":38.250182,"lat":21.740768},{"id":1005,"name":"Pirosvestiou Sq.","long":38.251501,"lat":21.742469},{"id":1006,"name":"Favierou","long":38.25301,"lat":21.744047},{"id":1007,"name":"Maratou","long":38.255243,"lat":21.745956},{"id":1008,"name":"Kourtesi","long":38.257032,"lat":21.74804},{"id":1009,"name":"Filippa","long":38.258791,"lat":21.75063},{"id":1010,"name":"Cemetery","long":38.260677,"lat":21.752139},{"id":1011,"name":"Anthoupoli","long":38.261335,"lat":21.753486},{"id":1012,"name":"Oga","long":38.264645,"lat":21.754793},{"id":1013,"name":"Aretha","long":38.266091,"lat":21.756736}]